Suburb,Location,Main risk,Supports,Description,Longitude,Latitude
"Applecross","Kintail Rd, Applecross","Confusing layout",3,"When turning right from Kintail Road onto the Canning Highway Entry, Vehicles are also turning right from Canning Highway onto Canning Beach Road. Both have green lights but, especially in peak hour, there is little other opportunity for the vehicles coming from Kintail road to go. I see many drivers coming from Kintail road taking high risks when turning. Uncountable near misses and many accidents have occurred due to this.  ",115.85113585,-32.011212361
"Applecross","Canning Beach Rd & Kintail Rd, Applecross","Confusing layout",4,"When crossing kintal road intersection from canning hwy the give way sign on quintal before the traffic lights is often ignored. Resulting in many near-miss T-bone accidents (and a lot of actual accidents also!)",115.8512592316,-32.011287415
"Applecross","Canning Beach Rd & Kintail Rd, Applecross","Little chance to turn/cross traffic",0,"Several near collisions between vehicles turning from Kintail Road to Canning highway and vehicles turning from Canning Highway onto Canning Beach road.",115.8512163162,-32.0112328303
"Applecross","Alness St & MacRae Rd, Applecross","Poor or no guard/barrier fencing",0,"Very difficult to cross this intersection on road - a foot path would assist.",115.8372044563,-32.0164455233
"Applecross","Canning Beach Rd & Kintail Rd, Applecross","Little chance to turn/cross traffic",6,"I have both experienced and seen car crashes due to the confusing layout and short light changes at this intersection.",115.8512668025,-32.0112953752
"Applecross","Canning Hwy & Cunningham St, Applecross","Unsafe or poor pedestrian crossing",1,"The morning and afternoon foot and bicycle traffic to and from the High School is dangerous. A well placed footbridge on this location would alleviate that and also  benefit visitations to Wireless Hill from the riverfront recreation areas.",115.8285784721,-32.0251599742
"Applecross","Helm St & Sleat Rd, Mount Pleasant","Area requires lights/roundabout",0,"With the increase in trafic and more to come vehicles speed up or just drive straight in frount of oncomming trafic just to get onto Sleat Rd",115.8467236161,-32.0148217057
"Applecross","Ardross St & Fraser Rd, Applecross","Poor or no provision for cyclists",0,"Cyclists descend Fraser Road at high speed then turn right onto Ardross St.  Vehicles reversing or exiting the parking areas on Ardross street pose a hazard",115.8322906494,-32.0066862648
"Applecross","Canning Beach Rd & Kintail Rd, Applecross","Poor or no provision for cyclists",0,"On bicycle coming from cycle path over canning bridge. Path and road layout forces riders onto wrong side of road to enter Kintail rd.",115.8512025699,-32.0111993467
