Local Government Area,Location,Main risk,Supports,Description,Longitude,Latitude
"CUNDERDIN","94, Cunderdin","Poor road surface quality",1,"",117.3469421268,-31.6425195862
"CUNDERDIN","94, Waeel","Poor road surface quality",0,"",117.137247026,-31.6303205105
"CUNDERDIN","10158-10158 Great Eastern Hwy, Meckering","Poor road surface quality",0,"Heavy traffic continuously with big trucks and road trains running between Perth and Kalgoorlie.  Few over taking opportunities causing frustration and people tend to take chances",116.9738371298,-31.6620838342
"CUNDERDIN","94, Cunderdin","Lacks overtaking opportunities",0,"Between northam and merredin there is currently only three overtaking lanes (160km stretch of road), on top of this, the road surface has seriously degraded in many places. Patchy roadworks are continually failing. Increased highway traffic means near misses happen frequently when people take their lives into their hands to try and pass slow traffic - this can also lead to people speeding to ensure their safe return to the left lane after passing traffic. ",117.3394775391,-31.6428598221
"CUNDERDIN","5236-5236 Goldfields Rd, Youndegin","Poor road surface quality",0,"Very poor road that becomes really dangerous during harvest. Slow trucks running on gravel edges throwing up stones. Add to that, blind crests and sharp corners and you gave a really dangerous road.",117.3157024384,-31.7922420626
"CUNDERDIN","Southern Brook Rd, Greenwoods Valley","Poor road surface quality",0,"Huge holes in roads. End up driving all over the road to miss the holes. This is very dangerous!",116.8966770172,-31.5360423578
